2019-04-12 23:02:42: {"class":"VERSION","release":"3.16","rev":"3.16-4","proto_major":3,"proto_minor":11}
2019-04-12 23:02:43: {"class":"DEVICES","devices":[{"class":"DEVICE","path":"/dev/gps0","activated":"2019-04-12T22:02:43.100Z","native":0,"bps":9600,"parity":"N","stopbits":1,"cycle":1.00}]}
2019-04-12 23:02:43: {"class":"WATCH","enable":true,"json":false,"nmea":true,"raw":0,"scaled":false,"timing":false,"split24":false,"pps":false}
2019-04-12 23:02:43: $GPRMC,221939.00,A,4440.09369,N,12308.01294,W,0.021,,120419,,,A*6B
2019-04-12 23:02:43: $GPVTG,,T,,M,0.021,N,0.039,K,A*2A
2019-04-12 23:02:43: $GPGGA,221939.00,4440.09369,N,12308.01294,W,1,10,0.84,98.1,M,-22.4,M,,*5F
2019-04-12 23:02:43: $GPGSA,A,3,19,17,24,28,06,15,13,01,30,12,,,1.42,0.84,1.15*0F
2019-04-12 23:02:43: $GPGSV,4,1,15,01,14,037,48,02,04,184,33,06,25,157,42,11,00,037,*7F
2019-04-12 23:02:43: $GPGSV,4,2,15,12,12,280,28,13,21,213,26,15,21,250,27,17,70,057,49*75
2019-04-12 23:02:43: $GPGSV,4,3,15,19,80,194,47,24,41,304,44,28,37,080,45,30,07,143,30*77
2019-04-12 23:02:43: $GPTXT,01,01,01,PGRM inv format*34
2019-04-12 23:02:43: $GPGSV,4,4,15,46,38,189,42,48,38,194,44,51,36,158,39*4E
2019-04-12 23:02:43: $GPGLL,4440.09369,N,12308.01294,W,221939.00,A,A*7E
2019-04-12 23:02:43: $GPTXT,01,01,01,PSRF inv format*2B
2019-04-12 23:02:43: $GPTXT,01,01,01,PFEC inv format*2C
2019-04-12 23:02:43: $GPTXT,01,01,01,PTNL inv format*3A
2019-04-12 23:02:43: $GPTXT,01,01,01,PFEC inv format*2C
2019-04-12 23:02:43: $GPTXT,01,01,01,PASH inv format*36
2019-04-12 23:02:43: $GPTXT,01,01,01,PMTK inv format*3E
2019-04-12 23:02:44: $GPZDA,221941.00,12,04,2019,00,00*66
2019-04-12 23:02:44: $GPGGA,221941,4440.0937,N,12308.0129,W,1,09,0.84,96.98,M,-21.277,M,,*41
2019-04-12 23:02:44: $GPRMC,221941,A,4440.0937,N,12308.0129,W,0.0197,196.641,120419,,*34
2019-04-12 23:02:44: $GPGSA,A,3,1,6,12,13,15,17,19,24,28,30,,,,,,,,,,,,,,,,,,,,,,,,,,,,,,,,,,,,,,,,,1.4,0.8,1.1*3C
2019-04-12 23:02:44: $GPGSV,4,1,14,01,14,037,48,02,04,184,32,06,25,157,42,12,12,280,28*7B
2019-04-12 23:02:44: $GPGSV,4,2,14,13,21,213,27,15,21,250,25,17,70,057,48,19,80,194,47*79
2019-04-12 23:02:44: $GPGSV,4,3,14,24,41,304,44,28,37,080,45,30,07,143,31,133,38,189,41*47
2019-04-12 23:02:44: $GPGSV,4,4,14,135,38,194,43,138,36,158,39*72
2019-04-12 23:02:44: $GPRMC,221940.00,A,4440.09368,N,12308.01292,W,0.023,,120419,,,A*60
2019-04-12 23:02:44: $GPVTG,,T,,M,0.023,N,0.043,K,A*25
2019-04-12 23:02:44: $GPGGA,221940.00,4440.09368,N,12308.01292,W,1,10,0.84,98.1,M,-22.4,M,,*56
2019-04-12 23:02:44: $GPGSA,A,3,19,17,24,28,06,15,13,01,30,12,,,1.42,0.84,1.15*0F
2019-04-12 23:02:44: $GPGSV,4,1,16,01,14,037,48,02,04,184,32,06,25,157,42,11,00,037,*7D
2019-04-12 23:02:44: $GPGSV,4,2,16,12,12,280,28,13,21,213,27,15,21,250,25,17,70,057,48*74
2019-04-12 23:02:44: $GPGSV,4,3,16,19,80,194,47,24,41,304,44,28,37,080,45,30,07,143,31*75
2019-04-12 23:02:44: $GPGSV,4,4,16,44,38,171,,46,38,189,41,48,38,194,43,51,36,158,39*75
2019-04-12 23:02:44: $GPGLL,4440.09368,N,12308.01292,W,221940.00,A,A*77
2019-04-12 23:02:45: $GPZDA,221941.00,12,04,2019,00,00*66
2019-04-12 23:02:45: $GPGGA,221941,4440.0937,N,12308.0129,W,1,09,0.84,96.94,M,-21.277,M,,*4D
2019-04-12 23:02:45: $GPRMC,221941,A,4440.0937,N,12308.0129,W,0.0465,248.144,120419,,*3E
2019-04-12 23:02:45: $GPGSA,A,3,1,6,12,13,15,17,19,24,28,30,,,,,,,,,,,,,,,,,,,,,,,,,,,,,,,,,,,,,,,,,1.4,0.8,1.1*3C
2019-04-12 23:02:45: $GPGBS,221941,7.67,M,9.23,M,26.45,M*08
2019-04-12 23:02:45: $GPRMC,221941.00,A,4440.09365,N,12308.01293,W,0.035,,120419,,,A*6A
2019-04-12 23:02:45: $GPVTG,,T,,M,0.035,N,0.064,K,A*27
2019-04-12 23:02:45: $GPGGA,221941.00,4440.09365,N,12308.01293,W,1,10,0.84,98.0,M,-22.4,M,,*5A
2019-04-12 23:02:45: $GPGSA,A,3,19,17,24,28,06,15,13,01,30,12,,,1.42,0.84,1.15*0F
2019-04-12 23:02:45: $GPGSV,4,1,16,01,14,037,45,02,04,184,31,06,25,157,39,11,00,037,*7F
2019-04-12 23:02:45: $GPGSV,4,2,16,12,12,280,29,13,21,213,28,15,21,250,24,17,70,057,46*75
2019-04-12 23:02:45: $GPGSV,4,3,16,19,80,194,44,24,41,304,41,28,37,080,43,30,07,143,30*74
2019-04-12 23:02:45: $GPGSV,4,4,16,44,38,171,,46,38,189,39,48,38,194,40,51,36,158,37*77
2019-04-12 23:02:45: $GPGLL,4440.09365,N,12308.01293,W,221941.00,A,A*7A
2019-04-12 23:02:46: $GPZDA,221942.00,12,04,2019,00,00*65
2019-04-12 23:02:46: $GPGGA,221942,4440.0937,N,12308.0130,W,1,10,0.84,96.86,M,-21.277,M,,*4D
2019-04-12 23:02:46: $GPRMC,221942,A,4440.0937,N,12308.0130,W,0.1273,292.610,120419,,*34
2019-04-12 23:02:46: $GPGSA,A,3,1,6,12,13,15,17,19,24,28,30,,,,,,,,,,,,,,,,,,,,,,,,,,,,,,,,,,,,,,,,,1.4,0.8,1.1*3C
2019-04-12 23:02:46: $GPGBS,221942,7.67,M,9.23,M,26.45,M*0B
2019-04-12 23:02:46: $GPRMC,221942.00,A,4440.09366,N,12308.01298,W,0.139,,120419,,,A*6C
2019-04-12 23:02:46: $GPVTG,,T,,M,0.139,N,0.258,K,A*27
2019-04-12 23:02:46: $GPGGA,221942.00,4440.09366,N,12308.01298,W,1,10,0.80,97.9,M,-22.4,M,,*53
2019-04-12 23:02:46: $GPGSA,A,3,19,17,24,28,06,15,13,01,30,12,,,1.40,0.80,1.14*08
2019-04-12 23:02:46: $GPGSV,4,1,16,01,14,037,38,02,04,184,26,06,25,157,34,11,00,037,*7E
2019-04-12 23:02:46: $GPGSV,4,2,16,12,12,280,28,13,21,213,28,15,21,250,24,17,70,057,39*7C
2019-04-12 23:02:46: $GPGSV,4,3,16,19,80,194,38,24,41,304,35,28,37,080,32,30,07,143,28*73
2019-04-12 23:02:46: $GPGSV,4,4,16,44,38,171,,46,38,189,31,48,38,194,34,51,36,158,31*7A
2019-04-12 23:02:46: $GPGLL,4440.09366,N,12308.01298,W,221942.00,A,A*71
2019-04-12 23:02:47: $GPZDA,221943.00,12,04,2019,00,00*64
2019-04-12 23:02:47: $GPGGA,221943,4440.0936,N,12308.0130,W,1,10,0.80,96.83,M,-21.277,M,,*4C
2019-04-12 23:02:47: $GPRMC,221943,A,4440.0936,N,12308.0130,W,0.0731,132.568,120419,,*33
2019-04-12 23:02:47: $GPGSA,A,3,1,6,12,13,15,17,19,24,28,30,,,,,,,,,,,,,,,,,,,,,,,,,,,,,,,,,,,,,,,,,1.4,0.8,1.1*3C
2019-04-12 23:02:47: $GPGBS,221943,7.67,M,9.23,M,26.22,M*0B
2019-04-12 23:02:47: $GPRMC,221943.00,A,4440.09363,N,12308.01296,W,0.067,,120419,,,A*6C
2019-04-12 23:02:47: $GPVTG,,T,,M,0.067,N,0.123,K,A*22
2019-04-12 23:02:47: $GPGGA,221943.00,4440.09363,N,12308.01296,W,1,10,0.80,97.9,M,-22.4,M,,*59
2019-04-12 23:02:47: $GPGSA,A,3,19,17,24,28,06,15,13,01,30,12,,,1.40,0.80,1.14*08
2019-04-12 23:02:47: $GPGSV,4,1,16,01,14,037,49,02,04,184,32,06,25,157,43,11,00,037,*7D
2019-04-12 23:02:47: $GPGSV,4,2,16,12,12,280,12,13,21,213,28,15,21,250,20,17,70,057,47*78
2019-04-12 23:02:47: $GPGSV,4,3,16,19,80,194,47,24,41,304,39,28,37,080,46,30,07,143,22*7E
2019-04-12 23:02:47: $GPGSV,4,4,16,44,38,171,,46,38,189,41,48,38,194,42,51,36,158,34*79
2019-04-12 23:02:47: $GPGLL,4440.09363,N,12308.01296,W,221943.00,A,A*7B
2019-04-12 23:02:48: $GPZDA,221944.00,12,04,2019,00,00*63
2019-04-12 23:02:48: $GPGGA,221944,4440.0936,N,12308.0130,W,1,10,0.80,96.73,M,-21.277,M,,*44
2019-04-12 23:02:48: $GPRMC,221944,A,4440.0936,N,12308.0130,W,0.0937,317.124,120419,,*35
2019-04-12 23:02:48: $GPGSA,A,3,1,6,12,13,15,17,19,24,28,30,,,,,,,,,,,,,,,,,,,,,,,,,,,,,,,,,,,,,,,,,1.4,0.8,1.1*3C
2019-04-12 23:02:48: $GPGBS,221944,7.67,M,9.23,M,26.22,M*0C
2019-04-12 23:02:48: $GPRMC,221944.00,A,4440.09362,N,12308.01300,W,0.093,,120419,,,A*6F
2019-04-12 23:02:48: $GPVTG,,T,,M,0.093,N,0.172,K,A*2D
2019-04-12 23:02:48: $GPGGA,221944.00,4440.09362,N,12308.01300,W,1,10,0.80,97.8,M,-22.4,M,,*50
2019-04-12 23:02:48: $GPGSA,A,3,19,17,24,28,06,15,13,01,30,12,,,1.40,0.80,1.14*08
2019-04-12 23:02:48: $GPGSV,4,1,16,01,14,037,47,02,04,184,32,06,25,157,40,11,00,037,*70
2019-04-12 23:02:48: $GPGSV,4,2,16,12,12,280,27,13,21,213,28,15,21,250,21,17,70,057,47*7F
2019-04-12 23:02:48: $GPGSV,4,3,16,19,80,194,45,24,41,304,39,28,37,080,44,30,07,143,29*75
2019-04-12 23:02:48: $GPGSV,4,4,16,44,38,171,,46,38,189,41,48,38,194,41,51,36,158,37*79
2019-04-12 23:02:48: $GPGLL,4440.09362,N,12308.01300,W,221944.00,A,A*73
2019-04-12 23:02:49: $GPZDA,221945.00,12,04,2019,00,00*62
2019-04-12 23:02:49: $GPGGA,221945,4440.0936,N,12308.0130,W,1,09,0.80,96.65,M,-21.277,M,,*4A
2019-04-12 23:02:49: $GPRMC,221945,A,4440.0936,N,12308.0130,W,0.0968,64.010,120419,,*0F
2019-04-12 23:02:49: $GPGSA,A,3,1,6,12,13,15,17,19,24,28,30,,,,,,,,,,,,,,,,,,,,,,,,,,,,,,,,,,,,,,,,,1.4,0.8,1.1*3C
2019-04-12 23:02:49: $GPGBS,221945,7.67,M,9.23,M,26.22,M*0D
2019-04-12 23:02:49: $GPRMC,221945.00,A,4440.09362,N,12308.01298,W,0.094,,120419,,,A*69
2019-04-12 23:02:49: $GPVTG,,T,,M,0.094,N,0.174,K,A*2C
2019-04-12 23:02:49: $GPGGA,221945.00,4440.09362,N,12308.01298,W,1,10,0.89,97.7,M,-22.4,M,,*57
2019-04-12 23:02:49: $GPGSA,A,3,19,17,24,28,06,15,13,01,30,12,,,1.56,0.89,1.28*09
2019-04-12 23:02:49: $GPGSV,4,1,16,01,14,037,44,02,04,184,31,06,25,157,41,11,00,037,*71
2019-04-12 23:02:49: $GPGSV,4,2,16,12,12,280,27,13,21,213,27,15,21,250,20,17,70,057,47*71
2019-04-12 23:02:49: $GPGSV,4,3,16,19,80,194,46,24,41,304,41,28,37,080,44,30,07,143,28*78
2019-04-12 23:02:49: $GPGSV,4,4,16,44,38,171,,46,38,189,40,48,38,194,40,51,36,158,35*7B
2019-04-12 23:02:49: $GPGLL,4440.09362,N,12308.01298,W,221945.00,A,A*72
2019-04-12 23:02:50: $GPZDA,221946.00,12,04,2019,00,00*61
2019-04-12 23:02:50: $GPGGA,221946,4440.0937,N,12308.0129,W,1,08,0.89,96.73,M,-21.277,M,,*4F
2019-04-12 23:02:50: $GPRMC,221946,A,4440.0937,N,12308.0129,W,0.0218,77.368,120419,,*07
2019-04-12 23:02:50: $GPGSA,A,3,1,6,12,13,15,17,19,24,28,30,,,,,,,,,,,,,,,,,,,,,,,,,,,,,,,,,,,,,,,,,1.6,0.9,1.3*3D
2019-04-12 23:02:50: $GPGBS,221946,7.67,M,9.23,M,29.44,M*01
2019-04-12 23:02:50: $GPRMC,221946.00,A,4440.09366,N,12308.01293,W,0.018,,120419,,,A*61
2019-04-12 23:02:50: $GPVTG,,T,,M,0.018,N,0.033,K,A*2A
2019-04-12 23:02:50: $GPGGA,221946.00,4440.09366,N,12308.01293,W,1,10,1.01,97.8,M,-22.4,M,,*55
2019-04-12 23:02:50: $GPGSA,A,3,19,17,24,28,06,15,13,01,30,12,,,1.66,1.01,1.32*00
2019-04-12 23:02:50: $GPGSV,4,1,16,01,14,037,46,02,04,184,31,06,25,157,42,11,00,037,*70
2019-04-12 23:02:50: $GPGSV,4,2,16,12,12,280,33,13,21,213,35,15,21,250,28,17,70,057,50*79
2019-04-12 23:02:50: $GPGSV,4,3,16,19,80,193,47,24,41,304,45,28,37,080,47,30,07,143,32*72
2019-04-12 23:02:50: $GPGSV,4,4,16,44,38,171,,46,38,189,43,48,38,194,42,51,36,158,37*78
2019-04-12 23:02:50: $GPGLL,4440.09366,N,12308.01293,W,221946.00,A,A*7E
2019-04-12 23:02:51: $GPZDA,221947.00,12,04,2019,00,00*60
2019-04-12 23:02:51: $GPGGA,221947,4440.0937,N,12308.0129,W,1,08,1.01,96.75,M,-21.277,M,,*49
2019-04-12 23:02:51: $GPRMC,221947,A,4440.0937,N,12308.0129,W,0.0231,113.096,120419,,*3C
2019-04-12 23:02:51: $GPGSA,A,3,1,6,12,13,15,17,19,24,28,30,,,,,,,,,,,,,,,,,,,,,,,,,,,,,,,,,,,,,,,,,1.7,1.0,1.3*34
2019-04-12 23:02:51: $GPGBS,221947,7.67,M,9.23,M,30.36,M*0D
2019-04-12 23:02:51: $GPRMC,221947.00,A,4440.09369,N,12308.01289,W,0.024,,120419,,,A*6B
2019-04-12 23:02:51: $GPVTG,,T,,M,0.024,N,0.045,K,A*24
2019-04-12 23:02:51: $GPGGA,221947.00,4440.09369,N,12308.01289,W,1,10,1.01,97.8,M,-22.4,M,,*50
2019-04-12 23:02:51: $GPGSA,A,3,19,17,24,28,06,15,13,01,30,12,,,1.66,1.01,1.32*00
2019-04-12 23:02:51: $GPGSV,4,1,16,01,14,037,45,02,04,184,32,06,25,157,41,11,00,037,*73
2019-04-12 23:02:51: $GPGSV,4,2,16,12,12,280,32,13,21,213,33,15,21,250,26,17,70,057,48*79
2019-04-12 23:02:51: $GPGSV,4,3,16,19,80,193,46,24,41,304,42,28,37,080,44,30,07,143,31*74
2019-04-12 23:02:51: $GPGSV,4,4,16,44,38,171,,46,38,189,41,48,38,194,42,51,36,158,39*74
2019-04-12 23:02:51: $GPGLL,4440.09369,N,12308.01289,W,221947.00,A,A*7B
2019-04-12 23:02:52: $GPZDA,221948.00,12,04,2019,00,00*6F
2019-04-12 23:02:52: $GPGGA,221948,4440.0937,N,12308.0129,W,1,08,1.01,96.71,M,-21.277,M,,*42
2019-04-12 23:02:52: $GPRMC,221948,A,4440.0937,N,12308.0129,W,0.0623,43.838,120419,,*0C
2019-04-12 23:02:52: $GPGSA,A,3,1,6,12,13,15,17,19,24,28,30,,,,,,,,,,,,,,,,,,,,,,,,,,,,,,,,,,,,,,,,,1.7,1.0,1.3*34
2019-04-12 23:02:52: $GPGBS,221948,7.67,M,9.23,M,30.36,M*02
2019-04-12 23:02:52: $GPRMC,221948.00,A,4440.09372,N,12308.01289,W,0.062,,120419,,,A*6C
2019-04-12 23:02:52: $GPVTG,,T,,M,0.062,N,0.114,K,A*23
2019-04-12 23:02:52: $GPGGA,221948.00,4440.09372,N,12308.01289,W,1,10,1.01,97.8,M,-22.4,M,,*55
2019-04-12 23:02:52: $GPGSA,A,3,19,17,24,28,06,15,13,01,30,12,,,1.66,1.01,1.32*00
2019-04-12 23:02:52: $GPGSV,4,1,16,01,14,037,40,02,04,184,30,06,25,157,38,11,00,037,*7A
2019-04-12 23:02:52: $GPGSV,4,2,16,12,12,280,28,13,21,213,29,15,21,250,23,17,70,057,45*71
2019-04-12 23:02:52: $GPGSV,4,3,16,19,80,193,41,24,41,304,38,28,37,080,40,30,07,143,26*7C
2019-04-12 23:02:52: $GPGSV,4,4,16,44,38,171,,46,38,189,38,48,38,194,38,51,36,158,37*79
2019-04-12 23:02:52: $GPGLL,4440.09372,N,12308.01289,W,221948.00,A,A*7E
2019-04-12 23:02:53: $GPZDA,221949.00,12,04,2019,00,00*6E
2019-04-12 23:02:53: $GPGGA,221949,4440.0937,N,12308.0129,W,1,08,1.01,96.68,M,-21.277,M,,*4B
2019-04-12 23:02:53: $GPRMC,221949,A,4440.0937,N,12308.0129,W,0.0395,71.947,120419,,*0D
2019-04-12 23:02:53: $GPGSA,A,3,1,6,12,13,15,17,19,24,28,30,,,,,,,,,,,,,,,,,,,,,,,,,,,,,,,,,,,,,,,,,1.7,1.0,1.3*34
2019-04-12 23:02:53: $GPGBS,221949,7.67,M,9.23,M,30.36,M*03
2019-04-12 23:02:53: $GPRMC,221949.00,A,4440.09375,N,12308.01287,W,0.043,,120419,,,A*67
2019-04-12 23:02:53: $GPVTG,,T,,M,0.043,N,0.080,K,A*2C
2019-04-12 23:02:53: $GPGGA,221949.00,4440.09375,N,12308.01287,W,1,10,1.01,97.8,M,-22.4,M,,*5D
2019-04-12 23:02:53: $GPGSA,A,3,19,17,24,28,06,15,13,01,30,12,,,1.66,1.01,1.32*00
2019-04-12 23:02:53: $GPGSV,4,1,16,01,14,037,44,02,04,184,32,06,25,157,41,11,00,037,*72
2019-04-12 23:02:53: $GPGSV,4,2,16,12,12,280,32,13,21,213,32,15,21,250,23,17,70,057,48*7D
2019-04-12 23:02:53: $GPGSV,4,3,16,19,80,193,46,24,41,304,43,28,37,080,45,30,07,143,30*75
2019-04-12 23:02:53: $GPGSV,4,4,16,44,38,171,,46,38,189,42,48,38,194,42,51,36,158,38*76
2019-04-12 23:02:53: $GPGLL,4440.09375,N,12308.01287,W,221949.00,A,A*76
2019-04-12 23:02:54: $GPZDA,221950.00,12,04,2019,00,00*66
2019-04-12 23:02:54: $GPGGA,221950,4440.0938,N,12308.0128,W,1,09,1.01,96.65,M,-21.277,M,,*41
2019-04-12 23:02:54: $GPRMC,221950,A,4440.0938,N,12308.0128,W,0.0000,0.000,120419,,*38
2019-04-12 23:02:54: $GPGSA,A,3,1,6,12,13,15,17,19,24,28,30,,,,,,,,,,,,,,,,,,,,,,,,,,,,,,,,,,,,,,,,,1.7,1.0,1.3*34
2019-04-12 23:02:54: $GPGBS,221950,7.67,M,9.23,M,30.36,M*0B
2019-04-12 23:02:54: $GPGSV,4,1,14,01,14,037,40,02,04,184,32,06,25,157,38,12,12,280,31*76
2019-04-12 23:02:54: $GPGSV,4,2,14,13,21,213,32,15,21,250,25,17,70,057,47,19,80,193,44*76
2019-04-12 23:02:54: $GPGSV,4,3,14,24,41,304,41,28,37,080,44,30,07,143,30,133,38,189,41*42
2019-04-12 23:02:54: $GPGSV,4,4,14,135,38,194,39,138,36,158,36*70
2019-04-12 23:02:54: $GPRMC,221950.00,A,4440.09379,N,12308.01284,W,0.002,,120419,,,A*65
2019-04-12 23:02:54: $GPVTG,,T,,M,0.002,N,0.004,K,A*25
2019-04-12 23:02:54: $GPGGA,221950.00,4440.09379,N,12308.01284,W,1,10,0.84,97.7,M,-22.4,M,,*59
2019-04-12 23:02:54: $GPGSA,A,3,19,17,24,28,06,15,13,01,30,12,,,1.42,0.84,1.15*0F
2019-04-12 23:02:54: $GPGSV,4,1,16,01,14,037,40,02,04,184,32,06,25,157,38,11,00,037,*78
2019-04-12 23:02:54: $GPGSV,4,2,16,12,12,280,31,13,21,213,32,15,21,250,25,17,70,057,47*77
2019-04-12 23:02:54: $GPGSV,4,3,16,19,80,193,44,24,41,304,41,28,37,080,44,30,07,143,30*74
2019-04-12 23:02:54: $GPGSV,4,4,16,44,38,171,,46,38,189,41,48,38,194,39,51,36,158,36*77
2019-04-12 23:02:54: $GPGLL,4440.09379,N,12308.01284,W,221950.00,A,A*71
2019-04-12 23:02:55: $GPZDA,221951.00,12,04,2019,00,00*67
2019-04-12 23:02:55: $GPGGA,221951,4440.0938,N,12308.0128,W,1,10,0.84,96.57,M,-21.277,M,,*45
2019-04-12 23:02:55: $GPRMC,221951,A,4440.0938,N,12308.0128,W,0.0274,337.194,120419,,*33
2019-04-12 23:02:55: $GPGSA,A,3,1,6,12,13,15,17,19,24,28,30,,,,,,,,,,,,,,,,,,,,,,,,,,,,,,,,,,,,,,,,,1.4,0.8,1.1*3C
2019-04-12 23:02:55: $GPGBS,221951,7.67,M,9.23,M,26.45,M*09
2019-04-12 23:02:55: $GPRMC,221951.00,A,4440.09382,N,12308.01283,W,0.023,,120419,,,A*64
2019-04-12 23:02:55: $GPVTG,,T,,M,0.023,N,0.043,K,A*25
2019-04-12 23:02:55: $GPGGA,221951.00,4440.09382,N,12308.01283,W,1,10,0.80,97.7,M,-22.4,M,,*5F
2019-04-12 23:02:55: $GPGSA,A,3,19,17,24,28,06,15,13,01,30,12,,,1.39,0.80,1.14*06
2019-04-12 23:02:55: $GPGSV,4,1,16,01,14,037,42,02,04,184,31,06,25,157,42,11,00,037,*74
2019-04-12 23:02:55: $GPGSV,4,2,16,12,12,280,31,13,21,213,32,15,21,250,31,17,70,057,50*74
2019-04-12 23:02:55: $GPGSV,4,3,16,19,80,193,46,24,42,304,43,28,37,080,44,30,07,143,30*77
2019-04-12 23:02:55: $GPGSV,4,4,16,44,38,171,,46,38,189,43,48,38,194,41,51,36,158,38*74
2019-04-12 23:02:55: $GPGLL,4440.09382,N,12308.01283,W,221951.00,A,A*73
2019-04-12 23:02:56: $GPZDA,221952.00,12,04,2019,00,00*64
2019-04-12 23:02:56: $GPGGA,221952,4440.0938,N,12308.0128,W,1,10,0.80,96.51,M,-21.277,M,,*44
2019-04-12 23:02:56: $GPRMC,221952,A,4440.0938,N,12308.0128,W,0.0138,0.000,120419,,*30
2019-04-12 23:02:56: $GPGSA,A,3,1,6,12,13,15,17,19,24,28,30,,,,,,,,,,,,,,,,,,,,,,,,,,,,,,,,,,,,,,,,,1.4,0.8,1.1*3C
2019-04-12 23:02:56: $GPGBS,221952,7.67,M,9.23,M,26.22,M*0B
2019-04-12 23:02:56: $GPRMC,221952.00,A,4440.09385,N,12308.01281,W,0.009,,120419,,,A*6A
2019-04-12 23:02:56: $GPVTG,,T,,M,0.009,N,0.016,K,A*2D
2019-04-12 23:02:56: $GPGGA,221952.00,4440.09385,N,12308.01281,W,1,10,0.80,97.6,M,-22.4,M,,*58
2019-04-12 23:02:56: $GPGSA,A,3,19,17,24,28,06,15,13,01,30,12,,,1.39,0.80,1.14*06
2019-04-12 23:02:56: $GPGSV,4,1,16,01,14,037,43,02,04,184,32,06,25,157,43,11,00,037,*77
2019-04-12 23:02:56: $GPGSV,4,2,16,12,12,280,33,13,21,213,33,15,21,250,26,17,70,057,50*71
2019-04-12 23:02:56: $GPGSV,4,3,16,19,80,193,47,24,42,304,40,28,37,080,44,30,07,143,30*75
2019-04-12 23:02:56: $GPGSV,4,4,16,44,38,171,,46,38,189,43,48,38,194,42,51,36,158,38*77
2019-04-12 23:02:56: $GPGLL,4440.09385,N,12308.01281,W,221952.00,A,A*75
2019-04-12 23:02:57: $GPZDA,221953.00,12,04,2019,00,00*65
2019-04-12 23:02:57: $GPGGA,221953,4440.0939,N,12308.0128,W,1,10,0.80,96.45,M,-21.277,M,,*41
2019-04-12 23:02:57: $GPRMC,221953,A,4440.0939,N,12308.0128,W,0.0109,77.368,120419,,*0F
2019-04-12 23:02:57: $GPGSA,A,3,1,6,12,13,15,17,19,24,28,30,,,,,,,,,,,,,,,,,,,,,,,,,,,,,,,,,,,,,,,,,1.4,0.8,1.1*3C
2019-04-12 23:02:57: $GPGBS,221953,7.67,M,9.23,M,26.22,M*0A
2019-04-12 23:02:57: $GPRMC,221953.00,A,4440.09387,N,12308.01281,W,0.013,,120419,,,A*62
2019-04-12 23:02:57: $GPVTG,,T,,M,0.013,N,0.024,K,A*27
2019-04-12 23:02:57: $GPGGA,221953.00,4440.09387,N,12308.01281,W,1,10,0.80,97.5,M,-22.4,M,,*58
2019-04-12 23:02:57: $GPGSA,A,3,19,17,24,28,06,15,13,01,30,12,,,1.39,0.80,1.14*06
2019-04-12 23:02:57: $GPGSV,4,1,16,01,14,037,42,02,04,184,33,06,25,157,42,11,00,037,*76
2019-04-12 23:02:57: $GPGSV,4,2,16,12,12,280,33,13,21,213,32,15,21,250,26,17,70,057,49*78
2019-04-12 23:02:57: $GPGSV,4,3,16,19,80,193,47,24,42,304,40,28,37,080,43,30,07,143,30*72
2019-04-12 23:02:57: $GPGSV,4,4,16,44,38,171,,46,38,189,42,48,38,194,41,51,36,158,38*75
2019-04-12 23:02:57: $GPGLL,4440.09387,N,12308.01281,W,221953.00,A,A*76
2019-04-12 23:02:58: $GPZDA,221954.00,12,04,2019,00,00*62
2019-04-12 23:02:58: $GPGGA,221954,4440.0939,N,12308.0128,W,1,10,0.80,96.37,M,-21.277,M,,*43
2019-04-12 23:02:58: $GPRMC,221954,A,4440.0939,N,12308.0128,W,0.0109,77.368,120419,,*08
2019-04-12 23:02:58: $GPGSA,A,3,1,6,12,13,15,17,19,24,28,30,,,,,,,,,,,,,,,,,,,,,,,,,,,,,,,,,,,,,,,,,1.4,0.8,1.1*3C
2019-04-12 23:02:58: $GPGBS,221954,7.67,M,9.23,M,26.22,M*0D
2019-04-12 23:02:58: $GPRMC,221954.00,A,4440.09389,N,12308.01281,W,0.012,,120419,,,A*6A
2019-04-12 23:02:58: $GPVTG,,T,,M,0.012,N,0.022,K,A*20
2019-04-12 23:02:58: $GPGGA,221954.00,4440.09389,N,12308.01281,W,1,10,0.80,97.5,M,-22.4,M,,*51
2019-04-12 23:02:58: $GPGSA,A,3,19,17,24,28,06,15,13,01,30,12,,,1.39,0.80,1.14*06
2019-04-12 23:02:58: $GPGSV,4,1,16,01,14,037,43,02,04,184,33,06,25,157,43,11,00,037,*76
2019-04-12 23:02:58: $GPGSV,4,2,16,12,12,280,33,13,21,213,31,15,21,250,28,17,70,057,50*7D
2019-04-12 23:02:58: $GPGSV,4,3,16,19,80,193,47,24,42,304,40,28,37,080,43,30,07,143,30*72
2019-04-12 23:02:58: $GPGSV,4,4,16,44,38,171,,46,38,189,42,48,38,194,42,51,36,158,39*77
2019-04-12 23:02:58: $GPGLL,4440.09389,N,12308.01281,W,221954.00,A,A*7F
2019-04-12 23:02:59: $GPZDA,221955.00,12,04,2019,00,00*63
2019-04-12 23:02:59: $GPGGA,221955,4440.0939,N,12308.0128,W,1,10,0.80,96.27,M,-21.277,M,,*43
2019-04-12 23:02:59: $GPRMC,221955,A,4440.0939,N,12308.0128,W,0.0175,291.327,120419,,*33
2019-04-12 23:02:59: $GPGSA,A,3,1,6,12,13,15,17,19,24,28,30,,,,,,,,,,,,,,,,,,,,,,,,,,,,,,,,,,,,,,,,,1.4,0.8,1.1*3C
2019-04-12 23:02:59: $GPGBS,221955,7.67,M,9.23,M,26.22,M*0C
2019-04-12 23:02:59: $GPRMC,221955.00,A,4440.09389,N,12308.01280,W,0.010,,120419,,,A*68
2019-04-12 23:02:59: $GPVTG,,T,,M,0.010,N,0.018,K,A*2B
2019-04-12 23:02:59: $GPGGA,221955.00,4440.09389,N,12308.01280,W,1,10,0.80,97.4,M,-22.4,M,,*50
2019-04-12 23:02:59: $GPGSA,A,3,19,17,24,28,06,15,13,01,30,12,,,1.39,0.80,1.14*06
2019-04-12 23:02:59: $GPGSV,4,1,16,01,14,037,41,02,04,184,33,06,25,157,41,11,00,037,*76
2019-04-12 23:02:59: $GPGSV,4,2,16,12,12,280,33,13,21,213,30,15,21,250,30,17,70,057,48*7C
2019-04-12 23:02:59: $GPGSV,4,3,16,19,80,193,46,24,42,304,39,28,37,080,41,30,07,143,29*77
2019-04-12 23:02:59: $GPGSV,4,4,16,44,38,171,,46,38,189,40,48,38,194,41,51,36,158,39*76
2019-04-12 23:02:59: $GPGLL,4440.09389,N,12308.01280,W,221955.00,A,A*7F
2019-04-12 23:03:00: $GPZDA,221956.00,12,04,2019,00,00*60
2019-04-12 23:03:00: $GPGGA,221956,4440.0939,N,12308.0128,W,1,10,0.80,96.21,M,-21.277,M,,*46
2019-04-12 23:03:00: $GPRMC,221956,A,4440.0939,N,12308.0128,W,0.0175,291.327,120419,,*30
2019-04-12 23:03:00: $GPGSA,A,3,1,6,12,13,15,17,19,24,28,30,,,,,,,,,,,,,,,,,,,,,,,,,,,,,,,,,,,,,,,,,1.4,0.8,1.1*3C
2019-04-12 23:03:00: $GPGBS,221956,7.67,M,9.23,M,26.22,M*0F
2019-04-12 23:03:00: $GPRMC,221956.00,A,4440.09387,N,12308.01278,W,0.015,,120419,,,A*67
2019-04-12 23:03:00: $GPVTG,,T,,M,0.015,N,0.027,K,A*22
2019-04-12 23:03:00: $GPGGA,221956.00,4440.09387,N,12308.01278,W,1,10,0.80,97.3,M,-22.4,M,,*5D
2019-04-12 23:03:00: $GPGSA,A,3,19,17,24,28,06,15,13,01,30,12,,,1.39,0.80,1.14*06
2019-04-12 23:03:00: $GPGSV,4,1,16,01,14,037,43,02,04,184,33,06,25,157,42,11,00,037,*77
2019-04-12 23:03:00: $GPGSV,4,2,16,12,12,280,33,13,21,213,29,15,21,250,31,17,70,057,50*7C
2019-04-12 23:03:00: $GPGSV,4,3,16,19,80,193,47,24,42,304,41,28,37,080,42,30,07,143,29*7A
2019-04-12 23:03:00: $GPGSV,4,4,16,44,38,171,,46,38,189,42,48,38,194,42,51,36,158,39*77
2019-04-12 23:03:00: $GPGLL,4440.09387,N,12308.01278,W,221956.00,A,A*75
2019-04-12 23:03:01: $GPZDA,221957.00,12,04,2019,00,00*61
2019-04-12 23:03:01: $GPGGA,221957,4440.0939,N,12308.0128,W,1,10,0.80,96.17,M,-21.277,M,,*42
2019-04-12 23:03:01: $GPRMC,221957,A,4440.0939,N,12308.0128,W,0.0138,0.000,120419,,*34
2019-04-12 23:03:01: $GPGSA,A,3,1,6,12,13,15,17,19,24,28,30,,,,,,,,,,,,,,,,,,,,,,,,,,,,,,,,,,,,,,,,,1.4,0.8,1.1*3C
2019-04-12 23:03:01: $GPGBS,221957,7.67,M,9.23,M,26.22,M*0E
2019-04-12 23:03:01: $GPRMC,221957.00,A,4440.09386,N,12308.01277,W,0.010,,120419,,,A*6D
2019-04-12 23:03:01: $GPVTG,,T,,M,0.010,N,0.018,K,A*2B
2019-04-12 23:03:01: $GPGGA,221957.00,4440.09386,N,12308.01277,W,1,10,0.80,97.3,M,-22.4,M,,*52
2019-04-12 23:03:01: $GPGSA,A,3,19,17,24,28,06,15,13,01,30,12,,,1.39,0.80,1.14*06
2019-04-12 23:03:01: $GPGSV,4,1,16,01,14,037,43,02,04,184,33,06,25,157,43,11,00,037,*76
2019-04-12 23:03:01: $GPGSV,4,2,16,12,12,280,33,13,21,213,29,15,21,250,32,17,70,057,50*7F
2019-04-12 23:03:01: $GPGSV,4,3,16,19,80,193,47,24,42,304,41,28,37,080,42,30,06,143,28*7A
2019-04-12 23:03:01: $GPGSV,4,4,16,44,38,171,,46,38,189,42,48,38,194,42,51,36,158,40*79
2019-04-12 23:03:01: $GPGLL,4440.09386,N,12308.01277,W,221957.00,A,A*7A
2019-04-12 23:03:02: $GPZDA,221958.00,12,04,2019,00,00*6E
2019-04-12 23:03:02: $GPGGA,221958,4440.0938,N,12308.0127,W,1,10,0.80,96.14,M,-21.277,M,,*40
2019-04-12 23:03:02: $GPRMC,221958,A,4440.0938,N,12308.0127,W,0.0179,65.351,120419,,*04
2019-04-12 23:03:02: $GPGSA,A,3,1,6,12,13,15,17,19,24,28,30,,,,,,,,,,,,,,,,,,,,,,,,,,,,,,,,,,,,,,,,,1.4,0.8,1.1*3C
2019-04-12 23:03:02: $GPGBS,221958,7.67,M,9.23,M,26.22,M*01
2019-04-12 23:03:02: $GPRMC,221958.00,A,4440.09384,N,12308.01273,W,0.018,,120419,,,A*6C
2019-04-12 23:03:02: $GPVTG,,T,,M,0.018,N,0.033,K,A*2A
2019-04-12 23:03:02: $GPGGA,221958.00,4440.09384,N,12308.01273,W,1,10,0.80,97.2,M,-22.4,M,,*5A
2019-04-12 23:03:02: $GPGSA,A,3,19,17,24,28,06,15,13,01,30,12,,,1.39,0.80,1.14*06
2019-04-12 23:03:02: $GPGSV,4,1,16,01,14,037,43,02,04,184,33,06,25,157,42,11,00,037,*77
2019-04-12 23:03:02: $GPGSV,4,2,16,12,12,280,33,13,21,213,28,15,21,250,33,17,70,057,49*77
2019-04-12 23:03:02: $GPGSV,4,3,16,19,80,193,47,24,42,304,40,28,37,080,41,30,06,143,27*77
2019-04-12 23:03:02: $GPGSV,4,4,16,44,38,171,,46,38,189,41,48,38,194,41,51,36,158,39*77
2019-04-12 23:03:02: $GPGLL,4440.09384,N,12308.01273,W,221958.00,A,A*73
2019-04-12 23:03:03: $GPZDA,221959.00,12,04,2019,00,00*6F
2019-04-12 23:03:03: $GPGGA,221959,4440.0938,N,12308.0127,W,1,10,0.80,96.12,M,-21.277,M,,*47
2019-04-12 23:03:03: $GPRMC,221959,A,4440.0938,N,12308.0127,W,0.0076,48.009,120419,,*0A
2019-04-12 23:03:03: $GPGSA,A,3,1,6,12,13,15,17,19,24,28,30,,,,,,,,,,,,,,,,,,,,,,,,,,,,,,,,,,,,,,,,,1.4,0.8,1.1*3C
2019-04-12 23:03:03: $GPGBS,221959,7.67,M,9.23,M,26.22,M*00
2019-04-12 23:03:03: $GPRMC,221959.00,A,4440.09383,N,12308.01270,W,0.003,,120419,,,A*63
2019-04-12 23:03:03: $GPVTG,,T,,M,0.003,N,0.005,K,A*25
2019-04-12 23:03:03: $GPGGA,221959.00,4440.09383,N,12308.01270,W,1,10,0.80,97.2,M,-22.4,M,,*5F
2019-04-12 23:03:03: $GPGSA,A,3,19,17,24,28,06,15,13,01,30,12,,,1.39,0.80,1.14*06
2019-04-12 23:03:03: $GPGSV,4,1,16,01,14,037,43,02,04,184,33,06,25,157,43,11,00,037,*76
2019-04-12 23:03:03: $GPGSV,4,2,16,12,12,280,33,13,21,213,27,15,21,250,34,17,70,057,50*77
2019-04-12 23:03:03: $GPGSV,4,3,16,19,80,193,47,24,42,304,40,28,37,080,42,30,06,143,27*74
2019-04-12 23:03:03: $GPGSV,4,4,16,44,38,171,,46,38,189,42,48,38,194,42,51,36,158,39*77
2019-04-12 23:03:03: $GPGLL,4440.09383,N,12308.01270,W,221959.00,A,A*76
2019-04-12 23:03:04: $GPZDA,222000.00,12,04,2019,00,00*69
2019-04-12 23:03:04: $GPGGA,222000,4440.0938,N,12308.0126,W,1,10,0.80,96.13,M,-21.277,M,,*41
2019-04-12 23:03:04: $GPRMC,222000,A,4440.0938,N,12308.0126,W,0.0138,180.000,120419,,*3A
2019-04-12 23:03:04: $GPGSA,A,3,1,6,12,13,15,17,19,24,28,30,,,,,,,,,,,,,,,,,,,,,,,,,,,,,,,,,,,,,,,,,1.4,0.8,1.1*3C
2019-04-12 23:03:04: $GPGBS,222000,7.67,M,9.23,M,26.22,M*06
2019-04-12 23:03:04: $GPGSV,4,1,14,01,14,037,43,02,04,184,33,06,25,157,43,12,12,280,33*7A
2019-04-12 23:03:04: $GPGSV,4,2,14,13,21,213,27,15,21,250,35,17,70,057,50,19,80,193,47*76
2019-04-12 23:03:04: $GPGSV,4,3,14,24,42,304,41,28,37,080,42,30,06,143,27,133,38,189,42*43
2019-04-12 23:03:04: $GPGSV,4,4,14,135,38,194,42,138,36,158,40*7D
2019-04-12 23:03:04: $GPRMC,222000.00,A,4440.09383,N,12308.01263,W,0.016,,120419,,,A*63
2019-04-12 23:03:04: $GPVTG,,T,,M,0.016,N,0.029,K,A*2F
2019-04-12 23:03:04: $GPGGA,222000.00,4440.09383,N,12308.01263,W,1,10,0.80,97.2,M,-22.4,M,,*5B
2019-04-12 23:03:04: $GPGSA,A,3,19,17,24,28,06,15,13,01,30,12,,,1.39,0.80,1.14*06
2019-04-12 23:03:04: $GPGSV,4,1,16,01,14,037,43,02,04,184,33,06,25,157,43,11,00,037,*76
2019-04-12 23:03:04: $GPGSV,4,2,16,12,12,280,33,13,21,213,27,15,21,250,35,17,70,057,50*76
2019-04-12 23:03:04: $GPGSV,4,3,16,19,80,193,47,24,42,304,41,28,37,080,42,30,06,143,27*75
2019-04-12 23:03:04: $GPGSV,4,4,16,44,38,171,,46,38,189,42,48,38,194,42,51,36,158,40*79
2019-04-12 23:03:04: $GPGLL,4440.09383,N,12308.01263,W,222000.00,A,A*72
2019-04-12 23:03:05: $GPZDA,222001.00,12,04,2019,00,00*68
2019-04-12 23:03:05: $GPGGA,222001,4440.0938,N,12308.0126,W,1,10,0.80,96.10,M,-21.277,M,,*43
2019-04-12 23:03:05: $GPRMC,222001,A,4440.0938,N,12308.0126,W,0.0387,24.868,120419,,*04
2019-04-12 23:03:05: $GPGSA,A,3,1,6,12,13,15,17,19,24,28,30,,,,,,,,,,,,,,,,,,,,,,,,,,,,,,,,,,,,,,,,,1.4,0.8,1.1*3C
2019-04-12 23:03:05: $GPGBS,222001,7.67,M,9.23,M,26.22,M*07
2019-04-12 23:03:05: $GPRMC,222001.00,A,4440.09382,N,12308.01258,W,0.028,,120419,,,A*66
2019-04-12 23:03:05: $GPVTG,,T,,M,0.028,N,0.051,K,A*2D
2019-04-12 23:03:05: $GPGGA,222001.00,4440.09382,N,12308.01258,W,1,10,0.80,97.2,M,-22.4,M,,*53
2019-04-12 23:03:05: $GPGSA,A,3,19,17,24,28,06,15,13,01,30,12,,,1.39,0.80,1.14*06
2019-04-12 23:03:05: $GPGSV,4,1,16,01,14,037,41,02,04,184,32,06,25,157,42,11,00,037,*74
2019-04-12 23:03:05: $GPGSV,4,2,16,12,12,280,31,13,21,213,26,15,21,250,33,17,70,057,48*7A
2019-04-12 23:03:05: $GPGSV,4,3,16,19,80,193,45,24,42,304,39,28,37,080,41,30,06,143,26*7A
2019-04-12 23:03:05: $GPGSV,4,4,16,44,38,171,,46,38,189,40,48,38,194,40,51,36,158,38*76
2019-04-12 23:03:05: $GPGLL,4440.09382,N,12308.01258,W,222001.00,A,A*7A
2019-04-12 23:03:06: $GPZDA,222002.00,12,04,2019,00,00*6B
2019-04-12 23:03:06: $GPGGA,222002,4440.0938,N,12308.0125,W,1,10,0.80,96.09,M,-21.277,M,,*4B
2019-04-12 23:03:06: $GPRMC,222002,A,4440.0938,N,12308.0125,W,0.0138,0.000,120419,,*32
2019-04-12 23:03:06: $GPGSA,A,3,1,6,12,13,15,17,19,24,28,30,,,,,,,,,,,,,,,,,,,,,,,,,,,,,,,,,,,,,,,,,1.4,0.8,1.1*3C
2019-04-12 23:03:06: $GPGBS,222002,7.67,M,9.23,M,26.22,M*04
2019-04-12 23:03:06: $GPRMC,222002.00,A,4440.09382,N,12308.01252,W,0.016,,120419,,,A*62
2019-04-12 23:03:06: $GPVTG,,T,,M,0.016,N,0.029,K,A*2F
2019-04-12 23:03:06: $GPGGA,222002.00,4440.09382,N,12308.01252,W,1,10,0.80,97.2,M,-22.4,M,,*5A
2019-04-12 23:03:06: $GPGSA,A,3,19,17,24,28,06,15,13,01,30,12,,,1.39,0.80,1.14*06
2019-04-12 23:03:06: $GPGSV,4,1,16,01,14,037,42,02,04,184,33,06,25,157,43,11,00,037,*77
2019-04-12 23:03:06: $GPGSV,4,2,16,12,12,280,32,13,21,213,25,15,21,250,34,17,70,057,50*74
2019-04-12 23:03:06: $GPGSV,4,3,16,19,80,193,47,24,42,304,41,28,37,080,43,30,06,143,26*75
2019-04-12 23:03:06: $GPGSV,4,4,16,44,38,171,,46,38,189,42,48,38,194,42,51,36,158,39*77
2019-04-12 23:03:06: $GPGLL,4440.09382,N,12308.01252,W,222002.00,A,A*73
2019-04-12 23:03:07: $GPZDA,222003.00,12,04,2019,00,00*6A
2019-04-12 23:03:07: $GPGGA,222003,4440.0938,N,12308.0125,W,1,09,0.80,96.06,M,-21.277,M,,*4D
2019-04-12 23:03:07: $GPRMC,222003,A,4440.0938,N,12308.0125,W,0.0231,113.096,120419,,*35
2019-04-12 23:03:07: $GPGSA,A,3,1,6,12,13,15,17,19,24,28,30,,,,,,,,,,,,,,,,,,,,,,,,,,,,,,,,,,,,,,,,,1.4,0.8,1.1*3C
2019-04-12 23:03:07: $GPGBS,222003,7.67,M,9.23,M,26.22,M*05
2019-04-12 23:03:07: $GPRMC,222003.00,A,4440.09383,N,12308.01247,W,0.030,,120419,,,A*62
2019-04-12 23:03:07: $GPVTG,,T,,M,0.030,N,0.055,K,A*20
2019-04-12 23:03:07: $GPGGA,222003.00,4440.09383,N,12308.01247,W,1,10,0.86,97.2,M,-22.4,M,,*58
2019-04-12 23:03:07: $GPGSA,A,3,19,17,24,28,06,15,13,01,30,12,,,1.43,0.86,1.14*0D
2019-04-12 23:03:07: $GPGSV,4,1,16,01,14,037,40,02,04,184,33,06,25,157,42,11,00,037,*74
2019-04-12 23:03:07: $GPGSV,4,2,16,12,12,280,32,13,21,213,24,15,21,250,33,17,70,057,48*7B
2019-04-12 23:03:07: $GPGSV,4,3,16,19,80,193,45,24,42,304,39,28,37,080,41,30,06,143,26*7A
2019-04-12 23:03:07: $GPGSV,4,4,16,44,38,171,,46,38,189,40,48,38,194,40,51,36,158,37*79
2019-04-12 23:03:07: $GPGLL,4440.09383,N,12308.01247,W,222003.00,A,A*77
2019-04-12 23:03:08: $GPZDA,222004.00,12,04,2019,00,00*6D
2019-04-12 23:03:08: $GPGGA,222004,4440.0938,N,12308.0124,W,1,09,0.86,96.02,M,-21.277,M,,*49
2019-04-12 23:03:08: $GPRMC,222004,A,4440.0938,N,12308.0124,W,0.0376,92.430,120419,,*01
2019-04-12 23:03:08: $GPGSA,A,3,1,6,12,13,15,17,19,24,28,30,,,,,,,,,,,,,,,,,,,,,,,,,,,,,,,,,,,,,,,,,1.4,0.9,1.1*3D
2019-04-12 23:03:08: $GPGBS,222004,7.67,M,9.23,M,26.22,M*02
2019-04-12 23:03:08: $GPRMC,222004.00,A,4440.09382,N,12308.01242,W,0.031,,120419,,,A*60
2019-04-12 23:03:08: $GPVTG,,T,,M,0.031,N,0.057,K,A*23
2019-04-12 23:03:08: $GPGGA,222004.00,4440.09382,N,12308.01242,W,1,10,0.86,97.1,M,-22.4,M,,*58
2019-04-12 23:03:08: $GPGSA,A,3,19,17,24,28,06,15,13,01,30,12,,,1.43,0.86,1.14*0D
2019-04-12 23:03:08: $GPGSV,4,1,16,01,14,037,41,02,04,184,32,06,25,157,43,11,00,037,*75
2019-04-12 23:03:08: $GPGSV,4,2,16,12,12,280,32,13,21,213,23,15,21,250,32,17,70,057,50*74
2019-04-12 23:03:08: $GPGSV,4,3,16,19,80,193,46,24,42,304,41,28,37,080,43,30,06,143,25*77
2019-04-12 23:03:08: $GPGSV,4,4,16,44,38,171,,46,38,189,43,48,38,194,42,51,36,158,39*76
2019-04-12 23:03:08: $GPGLL,4440.09382,N,12308.01242,W,222004.00,A,A*74
2019-04-12 23:03:09: $GPZDA,222005.00,12,04,2019,00,00*6C
2019-04-12 23:03:09: $GPGGA,222005,4440.0938,N,12308.0124,W,1,10,0.86,95.91,M,-21.277,M,,*49
2019-04-12 23:03:09: $GPRMC,222005,A,4440.0938,N,12308.0124,W,0.0268,37.396,120419,,*0A
2019-04-12 23:03:09: $GPGSA,A,3,1,6,12,13,15,17,19,24,28,30,,,,,,,,,,,,,,,,,,,,,,,,,,,,,,,,,,,,,,,,,1.4,0.9,1.1*3D
2019-04-12 23:03:09: $GPGBS,222005,7.67,M,9.23,M,26.22,M*03
2019-04-12 23:03:09: $GPRMC,222005.00,A,4440.09381,N,12308.01238,W,0.024,,120419,,,A*6B
2019-04-12 23:03:09: $GPVTG,,T,,M,0.024,N,0.044,K,A*25
2019-04-12 23:03:09: $GPGGA,222005.00,4440.09381,N,12308.01238,W,1,10,0.80,97.0,M,-22.4,M,,*50
2019-04-12 23:03:09: $GPGSA,A,3,19,17,24,28,06,15,13,01,30,12,,,1.39,0.80,1.14*06
2019-04-12 23:03:09: $GPGSV,4,1,16,01,14,037,41,02,04,184,33,06,25,157,43,11,00,037,*74
2019-04-12 23:03:09: $GPGSV,4,2,16,12,12,280,33,13,21,213,23,15,21,250,32,17,70,057,50*75
2019-04-12 23:03:09: $GPGSV,4,3,16,19,80,193,46,24,42,304,41,28,37,080,43,30,06,143,26*74
2019-04-12 23:03:09: $GPGSV,4,4,16,44,38,171,,46,38,189,42,48,38,194,42,51,36,158,39*77
2019-04-12 23:03:09: $GPGLL,4440.09381,N,12308.01238,W,222005.00,A,A*7B
2019-04-12 23:03:10: $GPZDA,222006.00,12,04,2019,00,00*6F
2019-04-12 23:03:10: $GPGGA,222006,4440.0938,N,12308.0124,W,1,09,0.80,95.85,M,-21.277,M,,*41
2019-04-12 23:03:10: $GPRMC,222006,A,4440.0938,N,12308.0124,W,0.0194,33.250,120419,,*06
2019-04-12 23:03:10: $GPGSA,A,3,1,6,12,13,15,17,19,24,28,30,,,,,,,,,,,,,,,,,,,,,,,,,,,,,,,,,,,,,,,,,1.4,0.8,1.1*3C
2019-04-12 23:03:10: $GPGBS,222006,7.67,M,9.23,M,26.22,M*00
2019-04-12 23:03:10: $GPRMC,222006.00,A,4440.09381,N,12308.01236,W,0.014,,120419,,,A*65
2019-04-12 23:03:10: $GPVTG,,T,,M,0.014,N,0.025,K,A*21
2019-04-12 23:03:10: $GPGGA,222006.00,4440.09381,N,12308.01236,W,1,10,0.89,96.9,M,-22.4,M,,*5C
2019-04-12 23:03:10: $GPGSA,A,3,19,17,24,28,06,15,13,01,30,12,,,1.56,0.89,1.28*09
2019-04-12 23:03:10: $GPGSV,4,1,16,01,14,037,40,02,04,184,33,06,25,157,43,11,00,037,*75
2019-04-12 23:03:10: $GPGSV,4,2,16,12,12,280,33,13,21,213,24,15,21,250,31,17,70,057,50*71
2019-04-12 23:03:10: $GPGSV,4,3,16,19,80,193,46,24,42,304,40,28,37,080,42,30,06,143,26*74
2019-04-12 23:03:10: $GPGSV,4,4,16,44,38,171,,46,38,189,42,48,38,194,41,51,36,158,38*75
2019-04-12 23:03:10: $GPGLL,4440.09381,N,12308.01236,W,222006.00,A,A*76
2019-04-12 23:03:11: $GPZDA,222007.00,12,04,2019,00,00*6E
2019-04-12 23:03:11: $GPGGA,222007,4440.0938,N,12308.0123,W,1,10,0.89,95.79,M,-21.277,M,,*45
2019-04-12 23:03:11: $GPRMC,222007,A,4440.0938,N,12308.0123,W,0.0109,77.368,120419,,*0E
2019-04-12 23:03:11: $GPGSA,A,3,1,6,12,13,15,17,19,24,28,30,,,,,,,,,,,,,,,,,,,,,,,,,,,,,,,,,,,,,,,,,1.6,0.9,1.3*3D
2019-04-12 23:03:11: $GPGBS,222007,7.67,M,9.23,M,29.44,M*0E
2019-04-12 23:03:11: $GPRMC,222007.00,A,4440.09382,N,12308.01233,W,0.012,,120419,,,A*64
2019-04-12 23:03:11: $GPVTG,,T,,M,0.012,N,0.022,K,A*20
2019-04-12 23:03:11: $GPGGA,222007.00,4440.09382,N,12308.01233,W,1,10,0.80,96.9,M,-22.4,M,,*52
2019-04-12 23:03:11: $GPGSA,A,3,19,17,24,28,06,15,13,01,30,12,,,1.39,0.80,1.14*06
2019-04-12 23:03:11: $GPGSV,4,1,16,01,14,037,41,02,04,184,33,06,25,157,43,11,00,037,*74
2019-04-12 23:03:11: $GPGSV,4,2,16,12,12,280,33,13,21,213,26,15,21,250,30,17,70,057,51*73
2019-04-12 23:03:11: $GPGSV,4,3,16,19,80,193,46,24,42,304,41,28,37,080,43,30,06,143,26*74
2019-04-12 23:03:11: $GPGSV,4,4,16,44,38,171,,46,38,189,42,48,38,194,42,51,36,158,40*79
2019-04-12 23:03:11: $GPGLL,4440.09382,N,12308.01233,W,222007.00,A,A*71
2019-04-12 23:03:12: $GPZDA,222008.00,12,04,2019,00,00*61
2019-04-12 23:03:12: $GPGGA,222008,4440.0938,N,12308.0123,W,1,09,0.80,95.72,M,-21.277,M,,*40
2019-04-12 23:03:12: $GPRMC,222008,A,4440.0938,N,12308.0123,W,0.0194,33.250,120419,,*0F
2019-04-12 23:03:12: $GPGSA,A,3,1,6,12,13,15,17,19,24,28,30,,,,,,,,,,,,,,,,,,,,,,,,,,,,,,,,,,,,,,,,,1.4,0.8,1.1*3C
2019-04-12 23:03:12: $GPGBS,222008,7.67,M,9.23,M,26.22,M*0E
2019-04-12 23:03:12: $GPRMC,222008.00,A,4440.09383,N,12308.01229,W,0.023,,120419,,,A*63
2019-04-12 23:03:12: $GPVTG,,T,,M,0.023,N,0.043,K,A*25
2019-04-12 23:03:12: $GPGGA,222008.00,4440.09383,N,12308.01229,W,1,10,0.84,96.8,M,-22.4,M,,*52
2019-04-12 23:03:12: $GPGSA,A,3,19,17,24,28,06,15,13,01,30,12,,,1.42,0.84,1.15*0F
2019-04-12 23:03:12: $GPGSV,4,1,16,01,14,037,41,02,04,184,33,06,25,157,44,11,00,037,*73
2019-04-12 23:03:12: $GPGSV,4,2,16,12,12,280,34,13,21,213,27,15,21,250,28,17,70,057,50*7D
2019-04-12 23:03:12: $GPGSV,4,3,16,19,80,193,46,24,42,304,41,28,37,080,43,30,06,143,26*74
2019-04-12 23:03:12: $GPGSV,4,4,16,44,38,171,,46,38,189,42,48,38,194,42,51,36,158,39*77
2019-04-12 23:03:12: $GPGLL,4440.09383,N,12308.01229,W,222008.00,A,A*74
2019-04-12 23:03:13: $GPZDA,222009.00,12,04,2019,00,00*60
2019-04-12 23:03:13: $GPGGA,222009,4440.0938,N,12308.0123,W,1,09,0.84,95.65,M,-21.277,M,,*43
2019-04-12 23:03:13: $GPRMC,222009,A,4440.0938,N,12308.0123,W,0.0000,0.000,120419,,*35
2019-04-12 23:03:13: $GPGSA,A,3,1,6,12,13,15,17,19,24,28,30,,,,,,,,,,,,,,,,,,,,,,,,,,,,,,,,,,,,,,,,,1.4,0.8,1.1*3C
2019-04-12 23:03:13: $GPGBS,222009,7.67,M,9.23,M,26.45,M*0E
2019-04-12 23:03:13: $GPRMC,222009.00,A,4440.09383,N,12308.01227,W,0.005,,120419,,,A*68
2019-04-12 23:03:13: $GPVTG,,T,,M,0.005,N,0.010,K,A*27
2019-04-12 23:03:13: $GPGGA,222009.00,4440.09383,N,12308.01227,W,1,10,0.84,96.7,M,-22.4,M,,*52
2019-04-12 23:03:13: $GPGSA,A,3,19,17,24,28,06,15,13,01,30,12,,,1.42,0.84,1.15*0F
2019-04-12 23:03:13: $GPGSV,4,1,16,01,14,037,40,02,04,184,32,06,25,157,43,11,00,037,*74
2019-04-12 23:03:13: $GPGSV,4,2,16,12,12,280,33,13,21,213,27,15,21,250,27,17,70,057,50*75
2019-04-12 23:03:13: $GPGSV,4,3,16,19,80,193,46,24,42,304,40,28,37,080,41,30,06,143,26*77
2019-04-12 23:03:13: $GPGSV,4,4,16,44,38,171,,46,38,189,40,48,38,194,42,51,36,158,38*74
2019-04-12 23:03:13: $GPGLL,4440.09383,N,12308.01227,W,222009.00,A,A*7B
2019-04-12 23:03:14: $GPZDA,222010.00,12,04,2019,00,00*68
2019-04-12 23:03:14: $GPGGA,222010,4440.0938,N,12308.0122,W,1,09,0.84,95.60,M,-21.277,M,,*4F
2019-04-12 23:03:14: $GPRMC,222010,A,4440.0938,N,12308.0122,W,0.0358,48.652,120419,,*0F
2019-04-12 23:03:14: $GPGSA,A,3,1,6,12,13,15,17,19,24,28,30,,,,,,,,,,,,,,,,,,,,,,,,,,,,,,,,,,,,,,,,,1.4,0.8,1.1*3C
2019-04-12 23:03:14: $GPGBS,222010,7.67,M,9.23,M,26.45,M*06
2019-04-12 23:03:14: $GPGSV,4,1,14,01,14,037,41,02,04,184,33,06,25,157,44,12,12,280,34*78
2019-04-12 23:03:14: $GPGSV,4,2,14,13,21,213,28,15,21,250,28,17,70,057,51,19,80,193,47*74
2019-04-12 23:03:14: $GPGSV,4,3,14,24,42,304,42,28,37,080,43,30,06,143,26,133,38,189,42*40
2019-04-12 23:03:14: $GPGSV,4,4,14,135,38,194,42,138,36,158,39*73
2019-04-12 23:03:14: $GPRMC,222010.00,A,4440.09383,N,12308.01225,W,0.030,,120419,,,A*64
2019-04-12 23:03:14: $GPVTG,,T,,M,0.030,N,0.055,K,A*20
2019-04-12 23:03:14: $GPGGA,222010.00,4440.09383,N,12308.01225,W,1,10,0.84,96.7,M,-22.4,M,,*58
2019-04-12 23:03:14: $GPGSA,A,3,19,17,24,28,06,15,13,01,30,12,,,1.42,0.84,1.15*0F
2019-04-12 23:03:14: $GPGSV,4,1,16,01,14,037,41,02,04,184,33,06,25,157,44,11,00,037,*73
2019-04-12 23:03:14: $GPGSV,4,2,16,12,12,280,34,13,21,213,28,15,21,250,28,17,70,057,51*73
2019-04-12 23:03:14: $GPGSV,4,3,16,19,80,193,47,24,42,304,42,28,37,080,43,30,06,143,26*76
2019-04-12 23:03:14: $GPGSV,4,4,16,44,38,171,,46,38,189,42,48,38,194,42,51,36,158,39*77
2019-04-12 23:03:14: $GPGLL,4440.09383,N,12308.01225,W,222010.00,A,A*71
2019-04-12 23:03:15: $GPZDA,222011.00,12,04,2019,00,00*69
2019-04-12 23:03:15: $GPGGA,222011,4440.0938,N,12308.0122,W,1,09,0.84,95.52,M,-21.277,M,,*4F
2019-04-12 23:03:15: $GPRMC,222011,A,4440.0938,N,12308.0122,W,0.0109,77.368,120419,,*08
2019-04-12 23:03:15: $GPGSA,A,3,1,6,12,13,15,17,19,24,28,30,,,,,,,,,,,,,,,,,,,,,,,,,,,,,,,,,,,,,,,,,1.4,0.8,1.1*3C
2019-04-12 23:03:15: $GPGBS,222011,7.67,M,9.23,M,26.45,M*07
2019-04-12 23:03:15: $GPRMC,222011.00,A,4440.09385,N,12308.01222,W,0.015,,120419,,,A*63
2019-04-12 23:03:15: $GPVTG,,T,,M,0.015,N,0.029,K,A*2C
2019-04-12 23:03:15: $GPGGA,222011.00,4440.09385,N,12308.01222,W,1,10,0.84,96.6,M,-22.4,M,,*59
2019-04-12 23:03:15: $GPGSA,A,3,19,17,24,28,06,15,13,01,30,12,,,1.42,0.84,1.15*0F
2019-04-12 23:03:15: $GPGSV,4,1,16,01,14,037,40,02,04,184,33,06,25,157,44,11,00,037,*72
2019-04-12 23:03:15: $GPGSV,4,2,16,12,12,280,33,13,21,213,29,15,21,250,29,17,70,057,50*75
2019-04-12 23:03:15: $GPGSV,4,3,16,19,80,193,46,24,42,304,40,28,37,080,42,30,06,143,27*75
2019-04-12 23:03:15: $GPGSV,4,4,16,44,38,171,,46,38,189,42,48,38,194,42,51,36,158,37*79
2019-04-12 23:03:15: $GPGLL,4440.09385,N,12308.01222,W,222011.00,A,A*71
2019-04-12 23:03:16: $GPZDA,222012.00,12,04,2019,00,00*6A
2019-04-12 23:03:16: $GPGGA,222012,4440.0939,N,12308.0122,W,1,09,0.84,95.43,M,-21.277,M,,*4D
2019-04-12 23:03:16: $GPRMC,222012,A,4440.0939,N,12308.0122,W,0.0332,9.797,120419,,*3D
2019-04-12 23:03:16: $GPGSA,A,3,1,6,12,13,15,17,19,24,28,30,,,,,,,,,,,,,,,,,,,,,,,,,,,,,,,,,,,,,,,,,1.4,0.8,1.1*3C
2019-04-12 23:03:16: $GPGBS,222012,7.67,M,9.23,M,26.45,M*04
2019-04-12 23:03:16: $GPRMC,222012.00,A,4440.09387,N,12308.01220,W,0.031,,120419,,,A*66
2019-04-12 23:03:16: $GPVTG,,T,,M,0.031,N,0.058,K,A*2C
2019-04-12 23:03:16: $GPGGA,222012.00,4440.09387,N,12308.01220,W,1,10,0.84,96.5,M,-22.4,M,,*59
2019-04-12 23:03:16: $GPGSA,A,3,19,17,24,28,06,15,13,01,30,12,,,1.42,0.84,1.15*0F
2019-04-12 23:03:16: $GPGSV,4,1,16,01,14,037,40,02,04,184,33,06,25,157,44,11,00,037,*72
2019-04-12 23:03:16: $GPGSV,4,2,16,12,12,280,33,13,21,213,30,15,21,250,29,17,70,057,51*7C
2019-04-12 23:03:16: $GPGSV,4,3,16,19,80,193,47,24,42,304,41,28,37,080,42,30,06,143,27*75
2019-04-12 23:03:16: $GPGSV,4,4,16,44,38,171,,46,38,189,42,48,38,194,42,51,36,158,39*77
2019-04-12 23:03:16: $GPGLL,4440.09387,N,12308.01220,W,222012.00,A,A*72
2019-04-12 23:03:17: $GPZDA,222013.00,12,04,2019,00,00*6B
2019-04-12 23:03:17: $GPGGA,222013,4440.0939,N,12308.0122,W,1,09,0.84,95.33,M,-21.277,M,,*4B
2019-04-12 23:03:17: $GPRMC,222013,A,4440.0939,N,12308.0122,W,0.0156,317.124,120419,,*3E
2019-04-12 23:03:17: $GPGSA,A,3,1,6,12,13,15,17,19,24,28,30,,,,,,,,,,,,,,,,,,,,,,,,,,,,,,,,,,,,,,,,,1.4,0.8,1.1*3C
2019-04-12 23:03:17: $GPGBS,222013,7.67,M,9.23,M,26.45,M*05
2019-04-12 23:03:17: $GPRMC,222013.00,A,4440.09390,N,12308.01219,W,0.016,,120419,,,A*6E
2019-04-12 23:03:17: $GPVTG,,T,,M,0.016,N,0.030,K,A*27
2019-04-12 23:03:17: $GPGGA,222013.00,4440.09390,N,12308.01219,W,1,10,0.84,96.4,M,-22.4,M,,*55
2019-04-12 23:03:17: $GPGSA,A,3,19,17,24,28,06,15,13,01,30,12,,,1.42,0.84,1.14*0E
2019-04-12 23:03:17: $GPGSV,4,1,16,01,14,037,41,02,04,184,33,06,25,157,44,11,00,037,*73
2019-04-12 23:03:17: $GPGSV,4,2,16,12,12,280,33,13,21,213,31,15,21,250,30,17,70,057,51*75
2019-04-12 23:03:17: $GPGSV,4,3,16,19,80,193,47,24,42,304,41,28,37,080,43,30,06,143,28*7B
2019-04-12 23:03:17: $GPGSV,4,4,16,44,38,171,,46,38,189,42,48,38,194,42,51,36,158,39*77
2019-04-12 23:03:17: $GPGLL,4440.09390,N,12308.01219,W,222013.00,A,A*7F
2019-04-12 23:03:18: $GPZDA,222014.00,12,04,2019,00,00*6C
2019-04-12 23:03:18: $GPGGA,222014,4440.0939,N,12308.0122,W,1,09,0.84,95.22,M,-21.277,M,,*4C
2019-04-12 23:03:18: $GPRMC,222014,A,4440.0939,N,12308.0122,W,0.0332,9.797,120419,,*3B
2019-04-12 23:03:18: $GPGSA,A,3,1,6,12,13,15,17,19,24,28,30,,,,,,,,,,,,,,,,,,,,,,,,,,,,,,,,,,,,,,,,,1.4,0.8,1.1*3C
2019-04-12 23:03:18: $GPGBS,222014,7.67,M,9.23,M,26.22,M*03
2019-04-12 23:03:18: $GPRMC,222014.00,A,4440.09393,N,12308.01218,W,0.024,,120419,,,A*6A
2019-04-12 23:03:18: $GPVTG,,T,,M,0.024,N,0.045,K,A*24
2019-04-12 23:03:18: $GPGGA,222014.00,4440.09393,N,12308.01218,W,1,10,0.84,96.3,M,-22.4,M,,*57
2019-04-12 23:03:18: $GPGSA,A,3,19,17,24,28,06,15,13,01,30,12,,,1.42,0.84,1.14*0E
2019-04-12 23:03:18: $GPGSV,4,1,16,01,14,037,39,02,04,184,32,06,25,157,42,11,00,037,*7B
2019-04-12 23:03:18: $GPGSV,4,2,16,12,12,280,32,13,21,213,30,15,21,250,29,17,70,057,49*74
2019-04-12 23:03:18: $GPGSV,4,3,16,19,80,193,45,24,42,304,39,28,37,080,42,30,06,143,28*77
2019-04-12 23:03:18: $GPGSV,4,4,16,44,38,171,,46,38,189,41,48,38,194,41,51,36,158,37*79
2019-04-12 23:03:18: $GPGLL,4440.09393,N,12308.01218,W,222014.00,A,A*7A
2019-04-12 23:03:19: $GPZDA,222015.00,12,04,2019,00,00*6D
2019-04-12 23:03:19: $GPGGA,222015,4440.0940,N,12308.0122,W,1,09,0.84,95.11,M,-21.277,M,,*43
2019-04-12 23:03:19: $GPRMC,222015,A,4440.0940,N,12308.0122,W,0.0000,0.000,120419,,*36
2019-04-12 23:03:19: $GPGSA,A,3,1,6,12,13,15,17,19,24,28,30,,,,,,,,,,,,,,,,,,,,,,,,,,,,,,,,,,,,,,,,,1.4,0.8,1.1*3C
2019-04-12 23:03:19: $GPGBS,222015,7.67,M,9.23,M,26.22,M*02
2019-04-12 23:03:19: $GPRMC,222015.00,A,4440.09396,N,12308.01217,W,0.003,,120419,,,A*64
2019-04-12 23:03:19: $GPVTG,,T,,M,0.003,N,0.005,K,A*25
2019-04-12 23:03:19: $GPGGA,222015.00,4440.09396,N,12308.01217,W,1,10,0.84,96.2,M,-22.4,M,,*5D
2019-04-12 23:03:19: $GPGSA,A,3,19,17,24,28,06,15,13,01,30,12,,,1.42,0.84,1.14*0E
2019-04-12 23:03:19: $GPGSV,4,1,16,01,14,037,40,02,04,184,33,06,25,157,44,11,00,037,*72
2019-04-12 23:03:19: $GPGSV,4,2,16,12,12,280,33,13,21,213,30,15,21,250,30,17,70,057,51*74
2019-04-12 23:03:19: $GPGSV,4,3,16,19,80,193,47,24,42,304,41,28,37,080,44,30,06,143,28*7C
2019-04-12 23:03:19: $GPGSV,4,4,16,44,38,171,,46,38,189,43,48,38,194,42,51,36,158,38*77
2019-04-12 23:03:19: $GPGLL,4440.09396,N,12308.01217,W,222015.00,A,A*71
2019-04-12 23:03:20: $GPZDA,222016.00,12,04,2019,00,00*6E
2019-04-12 23:03:20: $GPGGA,222016,4440.0940,N,12308.0122,W,1,09,0.84,95.02,M,-21.277,M,,*42
2019-04-12 23:03:20: $GPRMC,222016,A,4440.0940,N,12308.0122,W,0.0312,137.124,120419,,*37
2019-04-12 23:03:20: $GPGSA,A,3,1,6,12,13,15,17,19,24,28,30,,,,,,,,,,,,,,,,,,,,,,,,,,,,,,,,,,,,,,,,,1.4,0.8,1.1*3C
2019-04-12 23:03:20: $GPGBS,222016,7.67,M,9.23,M,26.22,M*01
2019-04-12 23:03:20: $GPRMC,222016.00,A,4440.09399,N,12308.01217,W,0.036,,120419,,,A*6E
2019-04-12 23:03:20: $GPVTG,,T,,M,0.036,N,0.066,K,A*26
2019-04-12 23:03:20: $GPGGA,222016.00,4440.09399,N,12308.01217,W,1,10,0.84,96.1,M,-22.4,M,,*52
2019-04-12 23:03:20: $GPGSA,A,3,19,17,24,28,06,15,13,01,30,12,,,1.42,0.84,1.14*0E
2019-04-12 23:03:20: $GPGSV,4,1,16,01,14,037,41,02,04,184,33,06,25,157,44,11,00,037,*73
2019-04-12 23:03:20: $GPGSV,4,2,16,12,12,280,34,13,21,213,31,15,21,250,29,17,70,057,51*7A
2019-04-12 23:03:20: $GPGSV,4,3,16,19,80,193,47,24,42,304,41,28,37,080,43,30,06,143,29*7A
2019-04-12 23:03:20: $GPGSV,4,4,16,44,38,171,,46,38,189,43,48,38,194,42,51,36,158,40*78
2019-04-12 23:03:20: $GPGLL,4440.09399,N,12308.01217,W,222016.00,A,A*7D
2019-04-12 23:03:21: $GPZDA,222017.00,12,04,2019,00,00*6F
2019-04-12 23:03:21: $GPGGA,222017,4440.0940,N,12308.0121,W,1,09,0.84,94.95,M,-21.277,M,,*4F
2019-04-12 23:03:21: $GPRMC,222017,A,4440.0940,N,12308.0121,W,0.0272,278.403,120419,,*3A
2019-04-12 23:03:21: $GPGSA,A,3,1,6,12,13,15,17,19,24,28,30,,,,,,,,,,,,,,,,,,,,,,,,,,,,,,,,,,,,,,,,,1.4,0.8,1.1*3C
2019-04-12 23:03:21: $GPGBS,222017,7.67,M,9.23,M,26.22,M*00
2019-04-12 23:03:21: $GPRMC,222017.00,A,4440.09402,N,12308.01215,W,0.029,,120419,,,A*66
2019-04-12 23:03:21: $GPVTG,,T,,M,0.029,N,0.053,K,A*2E
2019-04-12 23:03:21: $GPGGA,222017.00,4440.09402,N,12308.01215,W,1,10,0.84,96.0,M,-22.4,M,,*55
2019-04-12 23:03:21: $GPGSA,A,3,19,17,24,28,06,15,13,01,30,12,,,1.42,0.84,1.14*0E
2019-04-12 23:03:21: $GPGSV,4,1,16,01,14,037,41,02,04,184,33,06,25,157,44,11,00,037,*73
2019-04-12 23:03:21: $GPGSV,4,2,16,12,12,280,34,13,21,213,32,15,21,250,28,17,70,057,51*78
2019-04-12 23:03:21: $GPGSV,4,3,16,19,80,193,48,24,42,304,41,28,37,080,43,30,06,143,31*7C
2019-04-12 23:03:21: $GPGSV,4,4,16,44,38,171,,46,38,189,42,48,38,194,42,51,36,158,40*79
2019-04-12 23:03:21: $GPGLL,4440.09402,N,12308.01215,W,222017.00,A,A*7B
2019-04-12 23:03:22: $GPZDA,222018.00,12,04,2019,00,00*60
2019-04-12 23:03:22: $GPGGA,222018,4440.0940,N,12308.0121,W,1,09,0.84,94.92,M,-21.277,M,,*47
2019-04-12 23:03:22: $GPRMC,222018,A,4440.0940,N,12308.0121,W,0.0109,77.368,120419,,*0D
2019-04-12 23:03:22: $GPGSA,A,3,1,6,12,13,15,17,19,24,28,30,,,,,,,,,,,,,,,,,,,,,,,,,,,,,,,,,,,,,,,,,1.4,0.8,1.1*3C
2019-04-12 23:03:22: $GPGBS,222018,7.67,M,9.23,M,26.22,M*0F
2019-04-12 23:03:22: $GPRMC,222018.00,A,4440.09404,N,12308.01214,W,0.017,,120419,,,A*63
2019-04-12 23:03:22: $GPVTG,,T,,M,0.017,N,0.031,K,A*27
2019-04-12 23:03:22: $GPGGA,222018.00,4440.09404,N,12308.01214,W,1,10,0.84,96.0,M,-22.4,M,,*5D
2019-04-12 23:03:22: $GPGSA,A,3,19,17,24,28,06,15,13,01,30,12,,,1.42,0.84,1.14*0E
2019-04-12 23:03:22: $GPGSV,4,1,16,01,14,037,42,02,04,184,33,06,25,157,45,11,00,037,*71
2019-04-12 23:03:22: $GPGSV,4,2,16,12,12,280,34,13,21,213,32,15,21,250,26,17,70,057,51*76
2019-04-12 23:03:22: $GPGSV,4,3,16,19,80,193,48,24,42,304,41,28,37,080,43,30,06,143,31*7C
2019-04-12 23:03:22: $GPGSV,4,4,16,44,38,171,,46,38,189,42,48,38,194,42,51,36,158,40*79
2019-04-12 23:03:22: $GPGLL,4440.09404,N,12308.01214,W,222018.00,A,A*73
2019-04-12 23:03:23: $GPZDA,222019.00,12,04,2019,00,00*61
2019-04-12 23:03:23: $GPGGA,222019,4440.0941,N,12308.0121,W,1,09,0.84,94.90,M,-21.277,M,,*45
2019-04-12 23:03:23: $GPRMC,222019,A,4440.0941,N,12308.0121,W,0.0104,327.095,120419,,*37
2019-04-12 23:03:23: $GPGSA,A,3,1,6,12,13,15,17,19,24,28,30,,,,,,,,,,,,,,,,,,,,,,,,,,,,,,,,,,,,,,,,,1.4,0.8,1.1*3C
2019-04-12 23:03:23: $GPGBS,222019,7.67,M,9.23,M,26.22,M*0E
2019-04-12 23:03:23: $GPRMC,222019.00,A,4440.09406,N,12308.01214,W,0.012,,120419,,,A*65
2019-04-12 23:03:23: $GPVTG,,T,,M,0.012,N,0.023,K,A*21
2019-04-12 23:03:23: $GPGGA,222019.00,4440.09406,N,12308.01214,W,1,10,0.84,96.0,M,-22.4,M,,*5E
2019-04-12 23:03:23: $GPGSA,A,3,19,17,24,28,06,15,13,01,30,12,,,1.42,0.84,1.14*0E
2019-04-12 23:03:23: $GPGSV,4,1,16,01,14,037,42,02,04,184,32,06,25,157,44,11,00,037,*71
2019-04-12 23:03:23: $GPGSV,4,2,16,12,12,280,34,13,21,213,31,15,21,250,23,17,70,057,50*71
2019-04-12 23:03:23: $GPGSV,4,3,16,19,80,193,47,24,42,304,41,28,37,080,42,30,06,143,31*72
2019-04-12 23:03:23: $GPGSV,4,4,16,44,38,171,,46,38,189,42,48,38,194,42,51,36,158,39*77
2019-04-12 23:03:23: $GPGLL,4440.09406,N,12308.01214,W,222019.00,A,A*70
2019-04-12 23:03:24: $GPZDA,222020.00,12,04,2019,00,00*6B
2019-04-12 23:03:24: $GPGGA,222020,4440.0941,N,12308.0121,W,1,09,0.84,94.85,M,-21.277,M,,*4B
2019-04-12 23:03:24: $GPRMC,222020,A,4440.0941,N,12308.0121,W,0.0231,113.096,120419,,*3E
2019-04-12 23:03:24: $GPGSA,A,3,1,6,12,13,15,17,19,24,28,30,,,,,,,,,,,,,,,,,,,,,,,,,,,,,,,,,,,,,,,,,1.4,0.8,1.1*3C
2019-04-12 23:03:24: $GPGBS,222020,7.67,M,9.23,M,26.22,M*04
2019-04-12 23:03:24: $GPGSV,4,1,14,01,14,037,41,02,04,184,31,06,25,157,42,12,12,280,32*7A
2019-04-12 23:03:24: $GPGSV,4,2,14,13,21,213,30,15,21,250,20,17,70,057,49,19,80,193,45*7E
2019-04-12 23:03:24: $GPGSV,4,3,14,24,42,304,40,28,37,080,41,30,06,143,30,133,38,189,40*45
2019-04-12 23:03:24: $GPGSV,4,4,14,135,38,194,41,138,36,158,39*70
2019-04-12 23:03:24: $GPRMC,222020.00,A,4440.09407,N,12308.01214,W,0.017,,120419,,,A*6B
2019-04-12 23:03:24: $GPVTG,,T,,M,0.017,N,0.032,K,A*24
2019-04-12 23:03:24: $GPGGA,222020.00,4440.09407,N,12308.01214,W,1,10,0.84,95.9,M,-22.4,M,,*5F
2019-04-12 23:03:24: $GPGSA,A,3,19,17,24,28,06,15,13,01,30,12,,,1.42,0.84,1.14*0E
2019-04-12 23:03:24: $GPGSV,4,1,16,01,14,037,41,02,04,184,31,06,25,157,42,11,00,037,*77
2019-04-12 23:03:24: $GPGSV,4,2,16,12,12,280,32,13,21,213,30,15,21,250,20,17,70,057,49*7D
2019-04-12 23:03:24: $GPGSV,4,3,16,19,80,193,45,24,42,304,40,28,37,080,41,30,06,143,30*73
2019-04-12 23:03:24: $GPGSV,4,4,16,44,38,171,,46,38,189,40,48,38,194,41,51,36,158,39*76
2019-04-12 23:03:24: $GPGLL,4440.09407,N,12308.01214,W,222020.00,A,A*7B
2019-04-12 23:03:25: $GPZDA,222021.00,12,04,2019,00,00*6A
2019-04-12 23:03:25: $GPGGA,222021,4440.0941,N,12308.0121,W,1,09,0.84,94.83,M,-21.277,M,,*4C
2019-04-12 23:03:25: $GPRMC,222021,A,4440.0941,N,12308.0121,W,0.0197,196.641,120419,,*31
2019-04-12 23:03:25: $GPGSA,A,3,1,6,12,13,15,17,19,24,28,30,,,,,,,,,,,,,,,,,,,,,,,,,,,,,,,,,,,,,,,,,1.4,0.8,1.1*3C
2019-04-12 23:03:25: $GPGBS,222021,7.67,M,9.23,M,26.22,M*05
2019-04-12 23:03:25: $GPRMC,222021.00,A,4440.09409,N,12308.01214,W,0.015,,120419,,,A*66
2019-04-12 23:03:25: $GPVTG,,T,,M,0.015,N,0.028,K,A*2D
2019-04-12 23:03:25: $GPGGA,222021.00,4440.09409,N,12308.01214,W,1,10,0.84,95.9,M,-22.4,M,,*50
2019-04-12 23:03:25: $GPGSA,A,3,19,17,24,28,06,15,13,01,30,12,,,1.42,0.84,1.14*0E
2019-04-12 23:03:25: $GPGSV,4,1,16,01,14,037,43,02,04,184,32,06,26,157,45,11,00,037,*72
2019-04-12 23:03:25: $GPGSV,4,2,16,12,12,280,34,13,21,213,31,15,21,250,21,17,70,057,50*73
2019-04-12 23:03:25: $GPGSV,4,3,16,19,80,193,47,24,42,304,42,28,37,080,42,30,06,143,31*71
2019-04-12 23:03:25: $GPGSV,4,4,16,44,38,171,,46,38,189,42,48,38,194,42,51,36,158,40*79
2019-04-12 23:03:25: $GPGLL,4440.09409,N,12308.01214,W,222021.00,A,A*74
2019-04-12 23:03:26: $GPZDA,222022.00,12,04,2019,00,00*69
2019-04-12 23:03:26: $GPGGA,222022,4440.0941,N,12308.0121,W,1,10,0.84,94.83,M,-21.277,M,,*47
2019-04-12 23:03:26: $GPRMC,222022,A,4440.0941,N,12308.0121,W,0.0276,0.000,120419,,*33
2019-04-12 23:03:26: $GPGSA,A,3,1,6,12,13,15,17,19,24,28,30,,,,,,,,,,,,,,,,,,,,,,,,,,,,,,,,,,,,,,,,,1.4,0.8,1.1*3C
2019-04-12 23:03:26: $GPGBS,222022,7.67,M,9.23,M,26.22,M*06
2019-04-12 23:03:26: $GPRMC,222022.00,A,4440.09410,N,12308.01213,W,0.020,,120419,,,A*6C
2019-04-12 23:03:26: $GPVTG,,T,,M,0.020,N,0.036,K,A*24
2019-04-12 23:03:26: $GPGGA,222022.00,4440.09410,N,12308.01213,W,1,10,0.80,95.9,M,-22.4,M,,*58
2019-04-12 23:03:26: $GPGSA,A,3,19,17,24,28,06,15,13,01,30,12,,,1.39,0.80,1.14*06
2019-04-12 23:03:26: $GPGSV,4,1,16,01,14,037,42,02,04,184,32,06,26,157,43,11,00,037,*75
2019-04-12 23:03:26: $GPGSV,4,2,16,12,12,280,33,13,21,213,30,15,21,250,23,17,70,057,49*7F
2019-04-12 23:03:26: $GPGSV,4,3,16,19,80,193,46,24,42,304,40,28,37,080,41,30,06,143,31*71
2019-04-12 23:03:26: $GPGSV,4,4,16,44,38,171,,46,38,189,40,48,38,194,41,51,36,158,38*77
2019-04-12 23:03:26: $GPGLL,4440.09410,N,12308.01213,W,222022.00,A,A*78
2019-04-12 23:03:27: $GPZDA,222023.00,12,04,2019,00,00*68
2019-04-12 23:03:27: $GPGGA,222023,4440.0941,N,12308.0121,W,1,10,0.80,94.83,M,-21.277,M,,*42
2019-04-12 23:03:27: $GPRMC,222023,A,4440.0941,N,12308.0121,W,0.0109,77.368,120419,,*04
2019-04-12 23:03:27: $GPGSA,A,3,1,6,12,13,15,17,19,24,28,30,,,,,,,,,,,,,,,,,,,,,,,,,,,,,,,,,,,,,,,,,1.4,0.8,1.1*3C
2019-04-12 23:03:27: $GPGBS,222023,7.67,M,9.23,M,26.22,M*07
2019-04-12 23:03:27: $GPRMC,222023.00,A,4440.09412,N,12308.01212,W,0.004,,120419,,,A*68
2019-04-12 23:03:27: $GPVTG,,T,,M,0.004,N,0.007,K,A*20
2019-04-12 23:03:27: $GPGGA,222023.00,4440.09412,N,12308.01212,W,1,10,0.80,95.9,M,-22.4,M,,*5A
2019-04-12 23:03:27: $GPGSA,A,3,19,17,24,28,06,15,13,01,30,12,,,1.39,0.80,1.14*06
2019-04-12 23:03:27: $GPGSV,4,1,16,01,14,037,43,02,04,184,31,06,26,157,45,11,00,037,*71
2019-04-12 23:03:27: $GPGSV,4,2,16,12,12,280,33,13,21,213,30,15,21,250,25,17,70,057,51*70
2019-04-12 23:03:27: $GPGSV,4,3,16,19,80,193,47,24,42,304,42,28,37,080,42,30,06,143,31*71
2019-04-12 23:03:27: $GPGSV,4,4,16,44,38,171,,46,38,189,42,48,38,194,42,51,36,158,40*79
2019-04-12 23:03:27: $GPGLL,4440.09412,N,12308.01212,W,222023.00,A,A*7A
2019-04-12 23:03:28: $GPZDA,222024.00,12,04,2019,00,00*6F
2019-04-12 23:03:28: $GPGGA,222024,4440.0941,N,12308.0121,W,1,10,0.80,94.82,M,-21.277,M,,*44
2019-04-12 23:03:28: $GPRMC,222024,A,4440.0941,N,12308.0121,W,0.0076,228.009,120419,,*36
2019-04-12 23:03:28: $GPGSA,A,3,1,6,12,13,15,17,19,24,28,30,,,,,,,,,,,,,,,,,,,,,,,,,,,,,,,,,,,,,,,,,1.4,0.8,1.1*3C
2019-04-12 23:03:28: $GPGBS,222024,7.67,M,9.23,M,26.22,M*00
2019-04-12 23:03:28: $GPRMC,222024.00,A,4440.09412,N,12308.01212,W,0.003,,120419,,,A*68
2019-04-12 23:03:28: $GPVTG,,T,,M,0.003,N,0.006,K,A*26
2019-04-12 23:03:28: $GPGGA,222024.00,4440.09412,N,12308.01212,W,1,10,0.80,95.9,M,-22.4,M,,*5D
2019-04-12 23:03:28: $GPGSA,A,3,19,17,24,28,06,15,13,01,30,12,,,1.39,0.80,1.14*06
2019-04-12 23:03:28: $GPGSV,4,1,16,01,14,037,43,02,04,184,32,06,26,157,45,11,00,037,*72
2019-04-12 23:03:28: $GPGSV,4,2,16,12,12,280,33,13,21,213,30,15,21,250,26,17,70,057,51*73
2019-04-12 23:03:28: $GPGSV,4,3,16,19,80,193,47,24,42,304,42,28,37,080,42,30,06,143,32*72
2019-04-12 23:03:28: $GPGSV,4,4,16,44,38,171,,46,38,189,42,48,38,194,42,51,36,158,40*79
2019-04-12 23:03:28: $GPGLL,4440.09412,N,12308.01212,W,222024.00,A,A*7D
2019-04-12 23:03:29: $GPZDA,222025.00,12,04,2019,00,00*6E
2019-04-12 23:03:29: $GPGGA,222025,4440.0941,N,12308.0121,W,1,10,0.80,94.79,M,-21.277,M,,*41
2019-04-12 23:03:29: $GPRMC,222025,A,4440.0941,N,12308.0121,W,0.0138,0.000,120419,,*3D
2019-04-12 23:03:29: $GPGSA,A,3,1,6,12,13,15,17,19,24,28,30,,,,,,,,,,,,,,,,,,,,,,,,,,,,,,,,,,,,,,,,,1.4,0.8,1.1*3C
2019-04-12 23:03:29: $GPGBS,222025,7.67,M,9.23,M,26.22,M*01
2019-04-12 23:03:29: $GPRMC,222025.00,A,4440.09414,N,12308.01210,W,0.015,,120419,,,A*6A
2019-04-12 23:03:29: $GPVTG,,T,,M,0.015,N,0.028,K,A*2D
2019-04-12 23:03:29: $GPGGA,222025.00,4440.09414,N,12308.01210,W,1,10,0.80,95.9,M,-22.4,M,,*58
2019-04-12 23:03:29: $GPGSA,A,3,19,17,24,28,06,15,13,01,30,12,,,1.39,0.80,1.14*06
2019-04-12 23:03:29: $GPGSV,4,1,16,01,14,037,41,02,04,184,31,06,26,157,43,11,00,037,*75
2019-04-12 23:03:29: $GPGSV,4,2,16,12,12,280,33,13,21,213,29,15,21,250,26,17,70,057,49*72
2019-04-12 23:03:29: $GPGSV,4,3,16,19,80,193,46,24,42,304,40,28,37,080,41,30,06,143,31*71
2019-04-12 23:03:29: $GPGSV,4,4,16,44,38,171,,46,38,189,40,48,38,194,41,51,36,158,39*76
2019-04-12 23:03:29: $GPGLL,4440.09414,N,12308.01210,W,222025.00,A,A*78
2019-04-12 23:03:30: $GPZDA,222026.00,12,04,2019,00,00*6D
2019-04-12 23:03:30: $GPGGA,222026,4440.0941,N,12308.0121,W,1,10,0.80,94.79,M,-21.277,M,,*42
2019-04-12 23:03:30: $GPRMC,222026,A,4440.0941,N,12308.0121,W,0.0076,228.009,120419,,*34
2019-04-12 23:03:30: $GPGSA,A,3,1,6,12,13,15,17,19,24,28,30,,,,,,,,,,,,,,,,,,,,,,,,,,,,,,,,,,,,,,,,,1.4,0.8,1.1*3C
2019-04-12 23:03:30: $GPGBS,222026,7.67,M,9.23,M,26.22,M*02
2019-04-12 23:03:30: $GPRMC,222026.00,A,4440.09415,N,12308.01210,W,0.016,,120419,,,A*6B
2019-04-12 23:03:30: $GPVTG,,T,,M,0.016,N,0.029,K,A*2F
2019-04-12 23:03:30: $GPGGA,222026.00,4440.09415,N,12308.01210,W,1,10,0.80,95.9,M,-22.4,M,,*5A
2019-04-12 23:03:30: $GPGSA,A,3,19,17,24,28,06,15,13,01,30,12,,,1.39,0.80,1.14*06
2019-04-12 23:03:30: $GPGSV,4,1,16,01,14,037,44,02,04,184,31,06,26,157,44,11,00,037,*77
2019-04-12 23:03:30: $GPGSV,4,2,16,12,12,280,33,13,21,213,30,15,21,250,25,17,70,057,50*71
2019-04-12 23:03:30: $GPGSV,4,3,16,19,80,193,48,24,42,304,42,28,37,080,42,30,06,143,32*7D
2019-04-12 23:03:30: $GPGSV,4,4,16,44,38,171,,46,38,189,42,48,38,194,42,51,36,158,40*79
2019-04-12 23:03:30: $GPGLL,4440.09415,N,12308.01210,W,222026.00,A,A*7A
2019-04-12 23:03:31: $GPZDA,222027.00,12,04,2019,00,00*6C
2019-04-12 23:03:31: $GPGGA,222027,4440.0942,N,12308.0121,W,1,10,0.80,94.81,M,-21.277,M,,*47
2019-04-12 23:03:31: $GPRMC,222027,A,4440.0942,N,12308.0121,W,0.0194,33.250,120419,,*0D
2019-04-12 23:03:31: $GPGSA,A,3,1,6,12,13,15,17,19,24,28,30,,,,,,,,,,,,,,,,,,,,,,,,,,,,,,,,,,,,,,,,,1.4,0.8,1.1*3C
2019-04-12 23:03:31: $GPGBS,222027,7.67,M,9.23,M,26.22,M*03
2019-04-12 23:03:31: $GPRMC,222027.00,A,4440.09415,N,12308.01208,W,0.019,,120419,,,A*6C
2019-04-12 23:03:31: $GPVTG,,T,,M,0.019,N,0.035,K,A*2D
2019-04-12 23:03:31: $GPGGA,222027.00,4440.09415,N,12308.01208,W,1,10,0.80,95.9,M,-22.4,M,,*52
2019-04-12 23:03:31: $GPGSA,A,3,19,17,24,28,06,15,13,01,30,12,,,1.39,0.80,1.14*06
2019-04-12 23:03:31: $GPGSV,4,1,16,01,14,037,43,02,04,184,32,06,26,157,43,11,00,037,*74
2019-04-12 23:03:31: $GPGSV,4,2,16,12,12,280,34,13,21,213,30,15,21,250,25,17,70,057,49*7E
2019-04-12 23:03:31: $GPGSV,4,3,16,19,80,193,47,24,42,304,41,28,37,080,42,30,06,143,32*71
2019-04-12 23:03:31: $GPGSV,4,4,16,44,38,171,,46,38,189,40,48,38,194,42,51,36,158,40*7B
2019-04-12 23:03:31: $GPGLL,4440.09415,N,12308.01208,W,222027.00,A,A*72
2019-04-12 23:03:32: $GPZDA,222028.00,12,04,2019,00,00*63
2019-04-12 23:03:32: $GPGGA,222028,4440.0941,N,12308.0121,W,1,10,0.80,94.78,M,-21.277,M,,*4D
2019-04-12 23:03:32: $GPRMC,222028,A,4440.0941,N,12308.0121,W,0.0268,217.396,120419,,*3E
